[
  {
    "id": 1,
    "img": "images/shop1.png",
    "name": "畔居",
    "category": "和食",
    "phone_number": "03-3271-2000",
    "address": "東京都中央区日本橋1-2-10",
    "area": "日本橋界隈",
    "latitude": 35.6832685,
    "longitude": 139.7737331,
    "link": "https://tabelog.com/tokyo/A1302/A130203/13034278/",
    "comment": "日本橋駅15秒！掘炬燵個室22名・椅子個室28名迄。接待・歓送迎・結納を静かな個室で。",
    "owner_name": "北村元嚝",
    "owner_club": "無",
    "owner_graduated_at": "昭和39年",
    "owner_group": "三九会"
  },
  {
    "id": 2,
    "img": "images/shop2.png",
    "name": "東洋",
    "category": "洋食",
    "phone_number": "03-3271-0003",
    "address": "東京都中央区日本橋1-2-10",
    "area": "日本橋界隈",
    "latitude": 35.6832685,
    "longitude": 139.7737331,
    "link": "https://tabelog.com/tokyo/A1302/A130202/13011456/",
    "comment": "銀座線東西線日本橋駅B9出口より徒歩30秒！最大320席！同期会にぜひご利用ください！",
    "owner_name": "北村元嚝",
    "owner_club": "無",
    "owner_graduated_at": "昭和39年",
    "owner_group": "三九会"
  },
  {
    "id": 3,
    "img": "images/shop3.png",
    "name": "ラコルタ",
    "category": "イタリアン",
    "phone_number": "03-3231-0610",
    "address": "東京都中央区日本橋2-9-6",
    "area": "日本橋界隈",
    "latitude": 35.6811077,
    "longitude": 139.7750387,
    "link": "https://tabelog.com/tokyo/A1302/A130202/13030761/",
    "comment": "リピート率90％を誇る、歓送迎会セットあります。",
    "owner_name": "長谷川隆洋",
    "owner_club": "水泳部",
    "owner_graduated_at": "昭和61年",
    "owner_group": "新世輝"
  },
  {
    "id": 4,
    "img": "images/shop4.png",
    "name": "吉野鮨本店",
    "category": "寿司",
    "phone_number": "03-3274-3001",
    "address": "東京都中央区日本橋3-8-11",
    "area": "日本橋界隈",
    "latitude": 35.6798911,
    "longitude": 139.7736027,
    "link": "https://tabelog.com/tokyo/A1302/A130202/13000511/",
    "comment": "塩と酢のみで仕上げたシャリ、仕上げに自家製の煮切醤油を塗って出すスタイルは、創業当時のまま。",
    "owner_name": "吉野正敏",
    "owner_club": "ESS",
    "owner_graduated_at": "昭和61年",
    "owner_group": "新世輝"
  },
  {
    "id": 5,
    "img": "images/shop5.png",
    "name": "鳥徳",
    "category": "焼鳥",
    "phone_number": "03-3661-0962",
    "address": "東京都中央区日本橋茅場町2-5-6",
    "area": "日本橋界隈",
    "latitude": 35.6789386,
    "longitude": 139.7784524,
    "link": "https://tabelog.com/tokyo/A1302/A130203/13003027/",
    "comment": "今なお残る、下町民家の味処。明治の終わりから受け継ぐ東京下町民家。",
    "owner_name": "鍋島孝太郎",
    "owner_club": "商業研究部",
    "owner_graduated_at": "昭和60年",
    "owner_group": "闘紺会"
  },
  {
    "id": 6,
    "img": "images/shop6.png",
    "name": "北浜",
    "category": "和食",
    "phone_number": "03-3666-3348",
    "address": "東京都中央区日本橋人形町1-5-8",
    "area": "人形町界隈",
    "latitude": 35.6855518,
    "longitude": 139.782027,
    "link": "https://tabelog.com/tokyo/A1302/A130204/13033325/",
    "comment": "地下2階から5階まで大小様々な個室をご用意しています。",
    "owner_name": "北迫雄三",
    "owner_club": "風紀委員会",
    "owner_graduated_at": "昭和39年",
    "owner_group": "三九会"
  },
  {
    "id": 7,
    "img": "images/shop7.png",
    "name": "やゑ八",
    "category": "居酒屋",
    "phone_number": "03-3662-5180",
    "address": "東京都中央区日本橋小伝馬町3-10上嘉ビル2階",
    "area": "人形町界隈",
    "latitude": 35.6905868,
    "longitude": 139.7778583,
    "link": "https://tabelog.com/tokyo/A1302/A130204/13151203/",
    "comment": "日比谷線小伝馬町駅から徒歩1分。お一人さま歓迎。ランチもやってます。",
    "owner_name": "江原正俊",
    "owner_club": "応援指導班",
    "owner_graduated_at": "昭和52年",
    "owner_group": "男子校根性組"
  },
  {
    "id": 8,
    "img": "images/shop8.png",
    "name": "リンシエメ",
    "category": "イタリアン",
    "phone_number": "03-6264-8253",
    "address": "東京都中央区東日本橋3-9-2サンクビル1F",
    "area": "人形町界隈",
    "latitude": 35.6915674,
    "longitude": 139.7836402,
    "link": "https://tabelog.com/tokyo/A1302/A130204/13169787/",
    "comment": "もっちもち自家製生パスタとフルーティなサングリアは必食です。",
    "owner_name": "石野隆",
    "owner_club": "水泳部",
    "owner_graduated_at": "昭和38年",
    "owner_group": "二年に一会"
  },
  {
    "id": 9,
    "img": "images/shop9.png",
    "name": "蛇の目寿司",
    "category": "寿司",
    "phone_number": "03-3661-8536",
    "address": "東京都中央区東日本橋3-10-13",
    "area": "人形町界隈",
    "latitude": 35.69238989999999,
    "longitude": 139.7840795,
    "link": "https://tabelog.com/tokyo/A1302/A130204/13071269/",
    "comment": "夫婦二人でサービス精神と元気さを売りにしています。",
    "owner_name": "河田勇",
    "owner_club": "硬式野球部",
    "owner_graduated_at": "昭和45年",
    "owner_group": "獅子の会"
  },
  {
    "id": 10,
    "img": "images/shop10.png",
    "name": "きや",
    "category": "焼鳥",
    "phone_number": "03-5541-5761",
    "address": "東京都中央区八丁堀1-7-6",
    "area": "築地・銀座",
    "latitude": 35.6777443,
    "longitude": 139.7766359,
    "link": "https://tabelog.com/tokyo/A1302/A130203/13059103/",
    "comment": "毎日丁寧に仕込んでいます。席数に限りがございますので予約してお越しください！",
    "owner_name": "木屋満",
    "owner_club": "ボーイスカウト部",
    "owner_graduated_at": "昭和50年",
    "owner_group": "明紫会"
  },
  {
    "id": 11,
    "img": "images/shop11.png",
    "name": "丸二商店",
    "category": "乾物",
    "phone_number": "03-3541-1531",
    "address": "東京都中央区築地4-10-16",
    "area": "築地・銀座",
    "latitude": 35.6656177,
    "longitude": 139.7703478,
    "link": "https://tabelog.com/tokyo/A1313/A131301/13179459/",
    "comment": "白口上煮干、ちりめんじゃこ、しらす、昆布、するめ、帆立貝柱、わかめ、スモークサーモン、かずのこ・いくら。",
    "owner_name": "細金治彦",
    "owner_club": "硬式野球部",
    "owner_graduated_at": "昭和60年",
    "owner_group": "闘紺会"
  },
  {
    "id": 12,
    "img": "images/shop12.png",
    "name": "鳩屋海苔店",
    "category": "海苔",
    "phone_number": "03-3541-5523",
    "address": "東京都中央区築地4-14-16",
    "area": "築地・銀座",
    "latitude": 35.6649067,
    "longitude": 139.7707978,
    "link": "https://tabelog.com/tokyo/A1313/A131301/13168803/",
    "comment": "焼き海苔、わさびのり、海苔佃煮、名物殻つきアーモンド。",
    "owner_name": "鵜飼友義",
    "owner_club": "生徒会本部",
    "owner_graduated_at": "昭和61年",
    "owner_group": "新世輝"
  },
  {
    "id": 13,
    "img": "images/shop13.png",
    "name": "銀座升本",
    "category": "海苔",
    "phone_number": "03-3563-2706",
    "address": "東京都中央区銀座 1-4-7",
    "area": "築地・銀座",
    "latitude": 35.6748165,
    "longitude": 139.7666033,
    "link": "https://tabelog.com/tokyo/A1301/A130101/13039736/",
    "comment": "並木通りの大衆酒場です。銀座においでの際は是非お立ち寄りください。",
    "owner_name": "三保谷健介",
    "owner_club": "硬式野球部",
    "owner_graduated_at": "平成6年",
    "owner_group": ""
  },
  {
    "id": 14,
    "img": "images/shop14.png",
    "name": "銀座和蘭豆",
    "category": "喫茶",
    "phone_number": "03-3571-8266",
    "address": "東京都中央区銀座 7-3-13",
    "area": "築地・銀座",
    "latitude": 35.6701336,
    "longitude": 139.7601593,
    "link": "https://tabelog.com/tokyo/A1301/A130101/13007781/",
    "comment": "こだわりの生豆と焙煎とブレンドへのこだわり。",
    "owner_name": "望月寿昭",
    "owner_club": "無",
    "owner_graduated_at": "昭和60年",
    "owner_group": "闘紺会"
  },
  {
    "id": 15,
    "img": "images/shop15.png",
    "name": "マリブ（Malibu)ラウンジ・バー",
    "category": "Bar",
    "phone_number": "03-6273-8583",
    "address": "新宿区歌舞伎町2-27-12 Lee２ビル B-1",
    "area": "新宿・中野",
    "latitude": 35.69581489999999,
    "longitude": 139.7032215,
    "link": null,
    "comment": "現実を忘れさせてくれる不思議な空間です。お一人様、女性グループ、カップル、心配無用！！",
    "owner_name": "森田勉",
    "owner_club": "硬式野球部",
    "owner_graduated_at": "昭和48年",
    "owner_group": "波の会"
  },
  {
    "id": 16,
    "img": "images/shop16.png",
    "name": "旅籠",
    "category": "居酒屋",
    "phone_number": "03-3344-3144",
    "address": "東京都新宿区西新宿1-23-1 かどやホテルB1F",
    "area": "新宿・中野",
    "latitude": 35.68977,
    "longitude": 139.696183,
    "link": "https://tabelog.com/tokyo/A1304/A130401/13037680/",
    "comment": "新宿で一番美味しい炭火鶏焼きのお店。大小7個の個室完備。新宿駅西口徒歩3分。",
    "owner_name": "竹川茂",
    "owner_club": "軟式テニス部",
    "owner_graduated_at": "昭和47年",
    "owner_group": "四七四七同志酔会"
  },
  {
    "id": 17,
    "img": "images/shop17.png",
    "name": "マハロア",
    "category": "ハワイアン",
    "phone_number": "03-5345-5086",
    "address": "東京都中野区新井 1-23-21 プルメリア 1F",
    "area": "新宿・中野",
    "latitude": 35.7117077,
    "longitude": 139.6673505,
    "link": "https://tabelog.com/tokyo/A1321/A132104/13171526/",
    "comment": "フラダンスや生バンドによるライブを聞きながら、リゾート気分でお料理やトロピカルカクテルなどいかがですが？",
    "owner_name": "窪寺弘匡",
    "owner_club": "美術演劇部",
    "owner_graduated_at": "昭和50年",
    "owner_group": "明紫会"
  },
  {
    "id": 18,
    "img": "images/shop18.png",
    "name": "割烹魚きく",
    "category": "和食",
    "phone_number": "03-3386-6128",
    "address": "東京都中野区沼袋3-26-12",
    "area": "新宿・中野",
    "latitude": 35.7197973,
    "longitude": 139.6628128,
    "link": "https://tabelog.com/tokyo/A1321/A132104/13172154/",
    "comment": "お一人様から各種会合まで幅広くご利用いただけます。",
    "owner_name": "亀井利一",
    "owner_club": "山岳部",
    "owner_graduated_at": "昭和50年",
    "owner_group": "明紫会"
  },
  {
    "id": 19,
    "img": "images/shop19.png",
    "name": "青山但馬屋",
    "category": "豆菓子",
    "phone_number": "03-3401-2843",
    "address": "東京都港区北青山2-7-11",
    "area": "青山・赤坂・芝",
    "latitude": 35.6708378,
    "longitude": 139.7181074,
    "link": "https://tabelog.com/tokyo/A1306/A130603/13093929/",
    "comment": "明治27年創業。明治・大正・昭和・平成と4世代に親しまれている伝統の味。",
    "owner_name": "太田垣政紀",
    "owner_club": "軟式テニス部",
    "owner_graduated_at": "昭和51年",
    "owner_group": "明々会"
  },
  {
    "id": 20,
    "img": "images/shop20.png",
    "name": "オールドタイム",
    "category": "Bar",
    "phone_number": "03-5563-9606",
    "address": "東京都港区赤坂5-1-37 SDビル1F",
    "area": "青山・赤坂・芝",
    "latitude": 35.6741844,
    "longitude": 139.7361933,
    "link": "https://tabelog.com/tokyo/A1308/A130801/13169948/",
    "comment": "スコッチのシングルモルトとカクテル中心のお店です。",
    "owner_name": "横瀬昭夫",
    "owner_club": "無",
    "owner_graduated_at": "昭和42年",
    "owner_group": "M41"
  },
  {
    "id": 21,
    "img": "images/shop21.png",
    "name": "案山子",
    "category": "そば",
    "phone_number": "03-6272-4416",
    "address": "東京都港区芝2-12-9 波ビル １Ｆ",
    "area": "青山・赤坂・芝",
    "latitude": 35.6512443,
    "longitude": 139.7531393,
    "link": "https://tabelog.com/tokyo/A1314/A131401/13048598/",
    "comment": "“潔く、まっとうな蕎麦屋でありたい”という思いで営業してます。",
    "owner_name": "山田健人",
    "owner_club": "山岳部",
    "owner_graduated_at": "平成元年",
    "owner_group": "改元会"
  },
  {
    "id": 22,
    "img": "images/shop22.png",
    "name": "なな庵",
    "category": "居酒屋",
    "phone_number": "03-3432-5186",
    "address": "東京都港区芝大門1-4-5 アイムズ芝大門 1F",
    "area": "青山・赤坂・芝",
    "latitude": 35.6583551,
    "longitude": 139.7545666,
    "link": "https://tabelog.com/tokyo/A1314/A131401/13140761/",
    "comment": "三九会のたまり場で、いつでも誰かに会えます。",
    "owner_name": "七尾孝房",
    "owner_club": "無",
    "owner_graduated_at": "昭和39年",
    "owner_group": "三九会"
  },
  {
    "id": 23,
    "img": "images/shop23.png",
    "name": "いし橋",
    "category": "和食",
    "phone_number": "03-3251-3580",
    "address": "東京都千代田区外神田3-6-8",
    "area": "神田・神保町",
    "latitude": 35.7027827,
    "longitude": 139.7699161,
    "link": "https://tabelog.com/tokyo/A1311/A131101/13021036/",
    "comment": "６年連続ミシュラン１つ星掲載されました。",
    "owner_name": "石橋伸介",
    "owner_club": "ESS",
    "owner_graduated_at": "昭和62年",
    "owner_group": "明猿会"
  },
  {
    "id": 24,
    "img": "images/shop24.png",
    "name": "聖橋亭",
    "category": "洋食",
    "phone_number": "03-5209-8831",
    "address": "東京都千代田区外神田2-18-17",
    "area": "神田・神保町",
    "latitude": 35.70148,
    "longitude": 139.7669691,
    "link": "https://tabelog.com/tokyo/A1310/A131002/13103864/",
    "comment": "完全予約制の隠れ家レストラン。",
    "owner_name": "",
    "owner_club": "無",
    "owner_graduated_at": "昭和20年",
    "owner_group": "明中29（ふく）乃会"
  },
  {
    "id": 25,
    "img": "images/shop25.png",
    "name": "新世界菜館",
    "category": "中華",
    "phone_number": "03-3261-4957",
    "address": "東京都千代田区神田神保町 2-2",
    "area": "神田・神保町",
    "latitude": 35.6976024,
    "longitude": 139.7563032,
    "link": "https://tabelog.com/tokyo/A1310/A131003/13000411/",
    "comment": "直輸入の上海蟹とカメ出し紹興酒。上海料理の老舗。",
    "owner_name": "傳泰平",
    "owner_club": "バドミントン部",
    "owner_graduated_at": "平成6年",
    "owner_group": ""
  },
  {
    "id": 26,
    "img": "images/shop26.png",
    "name": "かねいち",
    "category": "和食",
    "phone_number": "03-3291-9221",
    "address": "東京都千代田区神田神保町1-25",
    "area": "神田・神保町",
    "latitude": 35.6950611,
    "longitude": 139.7604336,
    "link": "https://tabelog.com/tokyo/A1310/A131003/13011607/",
    "comment": "【神保町×鰻】ランキング第１位！！40年継ぎ足し続けたかねいち特性タレ。",
    "owner_name": "鈴木隆夫",
    "owner_club": "水泳部",
    "owner_graduated_at": "昭和36年",
    "owner_group": "明駿会"
  },
  {
    "id": 27,
    "img": "images/shop27.png",
    "name": "天しゃぶ",
    "category": "天ぷら",
    "phone_number": "03-3815-3579",
    "address": "東京都文京区小石川3-1-1",
    "area": "小石川・白山・湯島・上野界隈",
    "latitude": 35.7107811,
    "longitude": 139.7463173,
    "link": "https://tabelog.com/tokyo/A1310/A131003/13082635/",
    "comment": "傳通院門前、天ぷら・しゃぶしゃぶ専門店（4代目）。卓球部ＯＢの気さくな店です。明高ＯＢ歓迎します♪",
    "owner_name": "田中純",
    "owner_club": "卓球部",
    "owner_graduated_at": "昭和50年",
    "owner_group": "明紫会"
  },
  {
    "id": 28,
    "img": "images/shop28.png",
    "name": "ペガサス",
    "category": "喫茶",
    "phone_number": "03-3811-7768",
    "address": "東京都文京区白山5-1-3-103",
    "area": "小石川・白山・湯島・上野界隈",
    "latitude": 35.7200301,
    "longitude": 139.7510945,
    "link": "https://tabelog.com/tokyo/A1323/A132301/13058419/",
    "comment": "本格的コーヒーをお手頃価格で楽しんでもらっています。",
    "owner_name": "後藤義明",
    "owner_club": "フェンシング部",
    "owner_graduated_at": "昭和45年",
    "owner_group": "獅子の会"
  },
  {
    "id": 29,
    "img": "images/shop29.png",
    "name": "つる瀬",
    "category": "和菓子",
    "phone_number": "03-3833-8516",
    "address": "東京都文京区湯島3-35-8",
    "area": "小石川・白山・湯島・上野界隈",
    "latitude": 35.7080988,
    "longitude": 139.7701436,
    "link": "https://tabelog.com/tokyo/A1311/A131101/13003616/",
    "comment": "天神様のお膝元昭和5年創業。豆大福や豆餅をはじめ、四季折々のお菓子をどうぞ。",
    "owner_name": "田邊泰治",
    "owner_club": "無",
    "owner_graduated_at": "昭和30年",
    "owner_group": ""
  },
  {
    "id": 30,
    "img": "images/shop30.png",
    "name": "もつ真路",
    "category": "和食",
    "phone_number": "03-5812-2326",
    "address": "東京都台東区上野4-4-12",
    "area": "小石川・白山・湯島・上野界隈",
    "latitude": 35.7081378,
    "longitude": 139.7735434,
    "link": "https://tabelog.com/tokyo/A1311/A131101/13153541/",
    "comment": "美味しい味覚満載の宴会コースは飲み放題付4000円～6000円の4プラン♪",
    "owner_name": "的場尚",
    "owner_club": "物理部",
    "owner_graduated_at": "昭和60年",
    "owner_group": "闘紺会"
  },
  {
    "id": 31,
    "img": "images/shop31.png",
    "name": "水新菜館",
    "category": "中華",
    "phone_number": "03-3861-0577",
    "address": "東京都台東区浅草橋2-1-1",
    "area": "小石川・白山・湯島・上野界隈",
    "latitude": 35.6986448,
    "longitude": 139.7867513,
    "link": "https://tabelog.com/tokyo/A1311/A131103/13003727/",
    "comment": "名物メニューはあんかけ焼きそばニンニクたっぷり焼き餃子！",
    "owner_name": "寺田規行",
    "owner_club": "化学部",
    "owner_graduated_at": "昭和43年",
    "owner_group": "紫讃会"
  },
  {
    "id": 32,
    "img": "images/shop32.png",
    "name": "十和田",
    "category": "そば",
    "phone_number": "03-3841-7375",
    "address": "東京都台東区浅草1-13-4",
    "area": "浅草界隈",
    "latitude": 35.7119325,
    "longitude": 139.7932446,
    "link": "https://tabelog.com/tokyo/A1311/A131102/13016825/",
    "comment": "素材の吟味は厳しく、蕎麦粉は十和田湖周辺の山岳地方で契約栽培したものを、毎日東京に運んでいます。",
    "owner_name": "冨永龍司",
    "owner_club": "無",
    "owner_graduated_at": "昭和58年",
    "owner_group": "明輪会"
  },
  {
    "id": 33,
    "img": "images/shop33.png",
    "name": "蕎上人",
    "category": "そば",
    "phone_number": "03-3841-7856",
    "address": "東京都台東区駒形2-7-3",
    "area": "浅草界隈",
    "latitude": 35.7079884,
    "longitude": 139.7958502,
    "link": "https://tabelog.com/tokyo/A1311/A131102/13003671/",
    "comment": "そば教室も兼ねて江戸蕎麦の真骨頂に迫ります。",
    "owner_name": "平沼孝之",
    "owner_club": "バスケ部",
    "owner_graduated_at": "昭和45年",
    "owner_group": "獅子の会"
  },
  {
    "id": 34,
    "img": "images/shop34.png",
    "name": "安心や",
    "category": "甘味処",
    "phone_number": "03-5830-3288",
    "address": "東京都台東区浅草2-3-3",
    "area": "浅草界隈",
    "latitude": 35.7129074,
    "longitude": 139.7961777,
    "link": "https://tabelog.com/tokyo/A1311/A131102/13128949/",
    "comment": "感動の味「餅ドッグ」美味しいよ！",
    "owner_name": "大石喜代司",
    "owner_club": "バスケ部",
    "owner_graduated_at": "昭和45年",
    "owner_group": "獅子の会"
  },
  {
    "id": 35,
    "img": "images/shop35.png",
    "name": "魚清",
    "category": "和食",
    "phone_number": "03-3874-2390",
    "address": "東京都台東区浅草4-35-2",
    "area": "浅草界隈",
    "latitude": 35.7191069,
    "longitude": 139.7952135,
    "link": "https://tabelog.com/tokyo/A1311/A131102/13012244/",
    "comment": "ふぐシーズン中は、毎日築地から良質のふぐを仕入れております。",
    "owner_name": "岡本力三",
    "owner_club": "バスケ部",
    "owner_graduated_at": "昭和47年",
    "owner_group": "四七四七同志酔会"
  },
  {
    "id": 36,
    "img": "images/shop36.png",
    "name": "キングステーブル",
    "category": "サンドイッチ",
    "phone_number": "03-5825-4129",
    "address": "東京都台東区浅草5-71-9",
    "area": "浅草界隈",
    "latitude": 35.7218956,
    "longitude": 139.7991659,
    "link": "https://tabelog.com/tokyo/A1311/A131102/13024845/",
    "comment": "浅草の隠れた名店スペシャルヒレカツサンド",
    "owner_name": "大澤保男",
    "owner_club": "剣道部",
    "owner_graduated_at": "昭和48年",
    "owner_group": "波の会"
  },
  {
    "id": 37,
    "img": "images/shop37.png",
    "name": "カタヤマ",
    "category": "洋食",
    "phone_number": "03-3610-1500",
    "address": "東京都墨田区東向島4-2-6",
    "area": "向島・錦糸町界隈",
    "latitude": 35.7279621,
    "longitude": 139.8135229,
    "link": "https://tabelog.com/tokyo/A1312/A131203/13017945/",
    "comment": "お肉の美味しい下町の洋食屋。駄敏丁（だびんちょ）カットステーキ。",
    "owner_name": "片山幸弘",
    "owner_club": "無",
    "owner_graduated_at": "昭和29年",
    "owner_group": "29会"
  },
  {
    "id": 38,
    "img": "images/shop38.png",
    "name": "魚喜代",
    "category": "和食",
    "phone_number": "03-3619-0585",
    "address": "東京都墨田区東向島5-26-2",
    "area": "向島・錦糸町界隈",
    "latitude": 35.7275928,
    "longitude": 139.8204502,
    "link": "https://tabelog.com/tokyo/A1312/A131203/13141153/",
    "comment": "お魚割烹。元魚屋の目利きが光ります。おすすめはマグロ漬け丼。",
    "owner_name": "中野和博",
    "owner_club": "バスケ部",
    "owner_graduated_at": "昭和45年",
    "owner_group": "獅子の会"
  },
  {
    "id": 39,
    "img": "images/shop39.png",
    "name": "鳥義",
    "category": "和食",
    "phone_number": "03-3626-4466",
    "address": "東京都墨田区石原3-17-3",
    "area": "向島・錦糸町界隈",
    "latitude": 35.700403,
    "longitude": 139.8032581,
    "link": "https://tabelog.com/tokyo/A1312/A131201/13007986/",
    "comment": "下町で気軽にふぐ料理・うまいちゃんこ鍋をどうぞ！！！",
    "owner_name": "氏家喜久雄",
    "owner_club": "柔道部",
    "owner_graduated_at": "昭和61年",
    "owner_group": "新世輝"
  },
  {
    "id": 40,
    "img": "images/shop40.png",
    "name": "す吾六",
    "category": "居酒屋",
    "phone_number": "03-3632-3232",
    "address": "東京都墨田区緑 4-9-1",
    "area": "向島・錦糸町界隈",
    "latitude": 35.693601,
    "longitude": 139.8075356,
    "link": "https://tabelog.com/tokyo/A1312/A131201/13083734/",
    "comment": "錦糸町でお魚の鮮度、味にこだわったお店です♪",
    "owner_name": "家中勉",
    "owner_club": "生徒会本部",
    "owner_graduated_at": "昭和44年",
    "owner_group": "男坂倶楽部"
  },
  {
    "id": 41,
    "img": "images/shop41.png",
    "name": "肉の田じま",
    "category": "焼肉",
    "phone_number": "03-3699-8929",
    "address": "東京都江東区扇橋1-4-1",
    "area": "向島・錦糸町界隈",
    "latitude": 35.6824135,
    "longitude": 139.8115159,
    "link": "https://tabelog.com/tokyo/A1312/A131201/13003088/",
    "comment": "1F 精肉小売、2F 焼肉、3F すき焼き・ステーキ・しゃぶしゃぶ",
    "owner_name": "田島 実",
    "owner_club": "マンドリン部",
    "owner_graduated_at": "昭和44年",
    "owner_group": "男坂倶楽部"
  },
  {
    "id": 42,
    "img": "images/shop42.png",
    "name": "みの家",
    "category": "和食",
    "phone_number": "03-3631-8298",
    "address": "東京都江東区森下2-19-9",
    "area": "森下・両国・押上",
    "latitude": 35.6882739,
    "longitude": 139.798981,
    "link": "https://tabelog.com/tokyo/A1312/A131201/13002984/",
    "comment": "創業明治３０年。「桜なべ」「馬刺し」「あぶらさし」など、馬肉料理のお店。",
    "owner_name": "永瀬守",
    "owner_club": "水泳部",
    "owner_graduated_at": "昭和62年",
    "owner_group": "明猿会"
  },
  {
    "id": 43,
    "img": "images/shop43.png",
    "name": "とし田",
    "category": "和菓子",
    "phone_number": "03-3631-5928",
    "address": "東京都墨田区両国4-32-19",
    "area": "森下・両国・押上",
    "latitude": 35.6946759,
    "longitude": 139.7952979,
    "link": "https://tabelog.com/tokyo/A1312/A131201/13104434/",
    "comment": "お陰さまで創業80周年を迎えました。四季折々、見た目に美しく、伝統の半生菓子を是非ご賞味ください。",
    "owner_name": "年田義政",
    "owner_club": "バスケ部",
    "owner_graduated_at": "昭和62年",
    "owner_group": "明猿会"
  },
  {
    "id": 44,
    "img": "images/shop44.png",
    "name": "國技堂",
    "category": "和菓子",
    "phone_number": "03-3631-3856",
    "address": "東京都墨田区両国2-17-3",
    "area": "森下・両国・押上",
    "latitude": 35.69464809999999,
    "longitude": 139.7921815,
    "link": "https://tabelog.com/tokyo/A1312/A131201/13066478/",
    "comment": "「あんこ」と「あられ」のコンビが絶妙な「あんこあられ」が名物。「おせんべアイス」も大人気。",
    "owner_name": "岩佐浩之",
    "owner_club": "軟式テニス部",
    "owner_graduated_at": "昭和54年",
    "owner_group": "明誠会"
  },
  {
    "id": 45,
    "img": "images/shop45.png",
    "name": "森八",
    "category": "和菓子",
    "phone_number": "03-3622-0006",
    "address": "東京都墨田区業平1-3-6",
    "area": "森下・両国・押上",
    "latitude": 35.7072579,
    "longitude": 139.8107795,
    "link": "https://tabelog.com/tokyo/A1312/A131203/13045818/",
    "comment": "昭和八年の創業以来、当店独自の製法による餡を基本とした和菓子を作っています。",
    "owner_name": "森八一",
    "owner_club": "化学部",
    "owner_graduated_at": "昭和46年",
    "owner_group": "明潮会"
  },
  {
    "id": 46,
    "img": "images/shop46.png",
    "name": "森下伊勢屋",
    "category": "和菓子",
    "phone_number": "03-3631-6064",
    "address": "東京都江東区森下2-17-2",
    "area": "森下・両国・押上",
    "latitude": 35.6877378,
    "longitude": 139.7985283,
    "link": "https://tabelog.com/tokyo/A1312/A131201/13090291/",
    "comment": "創業70年。味噌あんが入った看板商品「深川あさり餅」。深川土産に是非どうぞ！",
    "owner_name": "本間修",
    "owner_club": "吹奏楽班",
    "owner_graduated_at": "昭和43年",
    "owner_group": "紫讃会"
  },
  {
    "id": 47,
    "img": "images/shop47.png",
    "name": "玉寿司",
    "category": "寿司",
    "phone_number": "03-3691-3088",
    "address": "東京都葛飾区東新小岩 5-17-7",
    "area": "新小岩・西新井界隈",
    "latitude": 35.7233963,
    "longitude": 139.8561965,
    "link": "https://tabelog.com/tokyo/A1312/A131204/13070953/",
    "comment": "本まぐろと葛飾産天然鰻の店。",
    "owner_name": "手束謙一",
    "owner_club": "吹奏楽班",
    "owner_graduated_at": "昭和60年",
    "owner_group": "闘紺会"
  },
  {
    "id": 48,
    "img": "images/shop48.png",
    "name": "はしご",
    "category": "中華",
    "phone_number": "03-3653-5137",
    "address": "東京都葛飾区新小岩1-50-10",
    "area": "新小岩・西新井界隈",
    "latitude": 35.7157111,
    "longitude": 139.8604576,
    "link": "https://tabelog.com/tokyo/A1312/A131204/13022352/",
    "comment": "秘伝のスープでつくるダンダン麺、癖になります。",
    "owner_name": "三田幹男",
    "owner_club": "バスケ部",
    "owner_graduated_at": "昭和43年",
    "owner_group": "紫讃会"
  },
  {
    "id": 49,
    "img": "images/shop49.png",
    "name": "孫悟空",
    "category": "中華",
    "phone_number": "03-3650-0059",
    "address": "東京都葛飾区細田1-15-6",
    "area": "新小岩・西新井界隈",
    "latitude": 35.7400641,
    "longitude": 139.8692833,
    "link": "https://tabelog.com/tokyo/A1312/A131204/13018073/",
    "comment": "食べ放題2,500円、飲み放題2,000円（税別）で承ります。",
    "owner_name": "新村秀男",
    "owner_club": "相撲部",
    "owner_graduated_at": "昭和42年",
    "owner_group": "M41"
  },
  {
    "id": 50,
    "img": "images/shop50.png",
    "name": "セキヤ",
    "category": "肉",
    "phone_number": "03-3886-3318",
    "address": "東京都足立区西新井栄町3-8-5",
    "area": "新小岩・西新井界隈",
    "latitude": 35.7771973,
    "longitude": 139.7820336,
    "link": "https://tabelog.com/tokyo/A1324/A132404/13111140/",
    "comment": "北海道産の男爵いもをゆで上げ、最上級の牛肉の脂と豚肉の合いびきで作ったコロッケが評判。",
    "owner_name": "関谷芳久",
    "owner_club": "吹奏楽班",
    "owner_graduated_at": "昭和44年",
    "owner_group": "男坂倶楽部"
  },
  {
    "id": 51,
    "img": "images/shop51.png",
    "name": "公園まえのパン屋さん",
    "category": "ベーカリー",
    "phone_number": "03-3890-5188",
    "address": "東京都足立区谷在家1-7-14",
    "area": "新小岩・西新井界隈",
    "latitude": 35.7841238,
    "longitude": 139.7720343,
    "link": "https://tabelog.com/tokyo/A1324/A132404/13115221/",
    "comment": "「丁寧さ、シンプルさ」を常に心がけています。",
    "owner_name": "開発武志",
    "owner_club": "応援指導班",
    "owner_graduated_at": "昭和56年",
    "owner_group": "明翔会"
  },
  {
    "id": 52,
    "img": "images/shop52.png",
    "name": "加瀬政",
    "category": "和食",
    "phone_number": "03-3918-1286",
    "address": "東京都豊島区巣鴨3-14-16",
    "area": "巣鴨・大塚・梶原",
    "latitude": 35.73584770000001,
    "longitude": 139.7332312,
    "link": "https://tabelog.com/tokyo/A1323/A132301/13003798/",
    "comment": "鱈のじゃっぱ鍋、桜肉のしゃぶしゃぶ、素鴨鍋が自慢です！",
    "owner_name": "渡邊博",
    "owner_club": "美術部",
    "owner_graduated_at": "昭和49年",
    "owner_group": "翼明会"
  },
  {
    "id": 53,
    "img": "images/shop53.png",
    "name": "天俊",
    "category": "天ぷら",
    "phone_number": "03-5952-1014",
    "address": "東京都豊島区南大塚3-20-9 Uガーデン １Ｆ",
    "area": "巣鴨・大塚・梶原",
    "latitude": 35.7298011,
    "longitude": 139.7264012,
    "link": "https://tabelog.com/tokyo/A1323/A132302/13037502/",
    "comment": "1919 年創業の江戸前天ぷらが自慢のお店です。完全予約制（木・金・土）",
    "owner_name": "内田吉昭",
    "owner_club": "バスケ部",
    "owner_graduated_at": "昭和51年",
    "owner_group": "明々会"
  },
  {
    "id": 54,
    "img": "images/shop54.png",
    "name": "たけやま",
    "category": "洋食",
    "phone_number": "03-3915-5709",
    "address": "東京都豊島区巣鴨3-37-2",
    "area": "巣鴨・大塚・梶原",
    "latitude": 35.7358533,
    "longitude": 139.7348672,
    "link": "https://tabelog.com/tokyo/A1323/A132301/13121961/",
    "comment": "とげぬき地蔵参拝の後のお食事に！",
    "owner_name": "池田曜",
    "owner_club": "マンドリン部",
    "owner_graduated_at": "昭和61年",
    "owner_group": "新世輝"
  },
  {
    "id": 55,
    "img": "images/shop55.png",
    "name": "山の音",
    "category": "喫茶",
    "phone_number": "03-3914-8962",
    "address": "東京都北区堀船3-40-1",
    "area": "巣鴨・大塚・梶原",
    "latitude": 35.7528267,
    "longitude": 139.7491571,
    "link": "https://tabelog.com/tokyo/A1323/A132303/13089235/",
    "comment": "コーヒーと昔なつかしいナポリタンが自慢の純喫茶です。",
    "owner_name": "松川芳久",
    "owner_club": "応援指導班",
    "owner_graduated_at": "昭和45年",
    "owner_group": "獅子の会"
  },
  {
    "id": 56,
    "img": "images/shop56.png",
    "name": "如月徳",
    "category": "そば",
    "phone_number": "03-3801-9001",
    "address": "東京都荒川区荒川7-26-9",
    "area": "町屋・西尾久・千住",
    "latitude": 35.7406627,
    "longitude": 139.78148,
    "link": "https://tabelog.com/tokyo/A1324/A132401/13158139/",
    "comment": "毎日その日の分だけ石臼で自家製粉し、細麺と太麺をお作りしています。ぜひ一度ご賞味ください。",
    "owner_name": "石黒理樹",
    "owner_club": "JRC インターアクト",
    "owner_graduated_at": "昭和52年",
    "owner_group": "男子校根性組"
  },
  {
    "id": 57,
    "img": "images/shop57.png",
    "name": "天ふじ",
    "category": "天ぷら",
    "phone_number": "03-3894-4746",
    "address": "東京都荒川区西尾久1－32－7",
    "area": "町屋・西尾久・千住",
    "latitude": 35.7470887,
    "longitude": 139.761762,
    "link": null,
    "comment": "東京でも珍しくなった持ち帰り専門の天ぷら屋季節の食材をお値打価格で。",
    "owner_name": "長沼理",
    "owner_club": "物理部",
    "owner_graduated_at": "昭和63年",
    "owner_group": "昭和戊辰乃会"
  },
  {
    "id": 58,
    "img": "images/shop58.png",
    "name": "佐留丹",
    "category": "居酒屋",
    "phone_number": "03-3882-7229",
    "address": "東京都足立区千住1-33-8",
    "area": "町屋・西尾久・千住",
    "latitude": 35.7480319,
    "longitude": 139.8038723,
    "link": "https://tabelog.com/tokyo/A1324/A132402/13034464/",
    "comment": "千住で河豚なら佐留丹で！",
    "owner_name": "猿田尚弘",
    "owner_club": "バレー部",
    "owner_graduated_at": "昭和61年",
    "owner_group": "新世輝"
  },
  {
    "id": 59,
    "img": "images/shop59.png",
    "name": "重盛商店",
    "category": "和菓子",
    "phone_number": "03-3801-6830",
    "address": "東京都荒川区南千住2-34-4",
    "area": "町屋・西尾久・千住",
    "latitude": 35.73179760000001,
    "longitude": 139.7979738,
    "link": "https://tabelog.com/tokyo/A1324/A132401/13020009/",
    "comment": "お土産に名物人形焼きとゼイタク煎餅を是非おためしください。",
    "owner_name": "重盛本也",
    "owner_club": "無",
    "owner_graduated_at": "",
    "owner_group": "明治白駿会"
  },
  {
    "id": 60,
    "img": "images/shop60.png",
    "name": "もち月",
    "category": "和食",
    "phone_number": "03-3735-1928",
    "address": "東京都大田区西蒲田7-29-5 ニューカマタビル1F～3F",
    "area": "蒲田・大森",
    "latitude": 35.5631704,
    "longitude": 139.7149956,
    "link": "https://tabelog.com/tokyo/A1315/A131503/13019533/",
    "comment": "蒲田での歓送迎会やご宴会に駅近のもち月へどうぞ！",
    "owner_name": "望月寿昭",
    "owner_club": "無",
    "owner_graduated_at": "昭和60年",
    "owner_group": "闘紺会"
  },
  {
    "id": 61,
    "img": "images/shop61.png",
    "name": "銀座和蘭豆",
    "category": "喫茶",
    "phone_number": "03-3739-0050",
    "address": "東京都大田区西蒲田7-66-10",
    "area": "蒲田・大森",
    "latitude": 35.5622234,
    "longitude": 139.7147373,
    "link": "https://tabelog.com/tokyo/A1315/A131503/13008264/",
    "comment": "美味しい自家焙煎コーヒーとデザート・ランチをどうぞ！",
    "owner_name": "望月寿昭",
    "owner_club": "無",
    "owner_graduated_at": "昭和60年",
    "owner_group": "闘紺会"
  },
  {
    "id": 62,
    "img": "images/shop62.png",
    "name": "銀座和蘭豆",
    "category": "喫茶",
    "phone_number": "03-3737-7585",
    "address": "東京都大田区西蒲田7-51-12 ライオンズフジ 1F",
    "area": "蒲田・大森",
    "latitude": 35.5622695,
    "longitude": 139.7111024,
    "link": "https://tabelog.com/tokyo/A1315/A131503/13168194/",
    "comment": "朝のモーニングセットがおすすめです！",
    "owner_name": "望月寿昭",
    "owner_club": "無",
    "owner_graduated_at": "昭和60年",
    "owner_group": "闘紺会"
  },
  {
    "id": 63,
    "img": "images/shop63.png",
    "name": "ルアン",
    "category": "喫茶",
    "phone_number": "03-3761-6077",
    "address": "東京都大田区大森北1-36-2",
    "area": "蒲田・大森",
    "latitude": 35.5861343,
    "longitude": 139.7268043,
    "link": "https://tabelog.com/tokyo/A1315/A131502/13008294/",
    "comment": "昭和の雰囲気を残す純喫茶。こだわりのサイホン珈琲が飲める店です。",
    "owner_name": "宮沢孝昌",
    "owner_club": "水泳部",
    "owner_graduated_at": "昭和59年",
    "owner_group": "明心会"
  },
  {
    "id": 64,
    "img": "images/shop64.png",
    "name": "麻賀園",
    "category": "お茶",
    "phone_number": "03-3761-7847",
    "address": "東京都大田区大森西2-33-1",
    "area": "蒲田・大森",
    "latitude": 35.5775106,
    "longitude": 139.7346349,
    "link": null,
    "comment": "日本茶インストラクターの夫婦のいるお店です。こだわりの日本茶を販売しています。",
    "owner_name": "麻賀康之",
    "owner_club": "商業研究部",
    "owner_graduated_at": "昭和62年",
    "owner_group": "明猿会"
  },
  {
    "id": 65,
    "img": "images/shop65.png",
    "name": "花長",
    "category": "天ぷら",
    "phone_number": "03-6808-7021",
    "address": "東京都大田区東糀谷3-4-11",
    "area": "東糀谷・川崎・鶴見",
    "latitude": 35.5532392,
    "longitude": 139.7417387,
    "link": "https://tabelog.com/tokyo/A1315/A131504/13119982/",
    "comment": "創業明治二十年！元祖御座敷天婦羅と言われた名店。",
    "owner_name": "本多由明",
    "owner_club": "無",
    "owner_graduated_at": "昭和36年",
    "owner_group": "明駿会"
  },
  {
    "id": 66,
    "img": "images/shop66.png",
    "name": "ロベルティーノ",
    "category": "イタリアン",
    "phone_number": "044-788-5757",
    "address": "神奈川県川崎市高津区久末 402",
    "area": "東糀谷・川崎・鶴見",
    "latitude": 35.5648286,
    "longitude": 139.6154331,
    "link": "https://tabelog.com/kanagawa/A1401/A140203/14050187/",
    "comment": "気軽に焼き立てのピッツァとおつまみ・ドリンクを楽しめるお店です。",
    "owner_name": "安齋聡",
    "owner_club": "商業研究部",
    "owner_graduated_at": "昭和63年",
    "owner_group": "昭和戊辰乃会"
  },
  {
    "id": 67,
    "img": "images/shop67.png",
    "name": "正木屋",
    "category": "居酒屋",
    "phone_number": "045-511-0573",
    "address": "横浜市鶴見区市場大和町3-17",
    "area": "東糀谷・川崎・鶴見",
    "latitude": 35.5173135,
    "longitude": 139.6865224,
    "link": "https://tabelog.com/kanagawa/A1401/A140210/14025967/",
    "comment": "BS-TBS 月曜PM:9:00 酒場放浪記で吉田類さんが来店しました！",
    "owner_name": "勇崎昌已",
    "owner_club": "無",
    "owner_graduated_at": "昭和63年",
    "owner_group": "昭和戊辰乃会"
  },
  {
    "id": 68,
    "img": "images/shop68.png",
    "name": "梅屋",
    "category": "軽食",
    "phone_number": "",
    "address": "東京競馬場・中山競馬場内",
    "area": "東京競馬場・中山競馬場",
    "latitude": 35.6647664,
    "longitude": 139.4834431,
    "link": null,
    "comment": "負けてもうまい競馬場名物煮込みと肉そばが有名。立川志らく師匠も唸る肉そば！",
    "owner_name": "山縣清",
    "owner_club": "スキー部",
    "owner_graduated_at": "昭和47年",
    "owner_group": "四七四七同志酔会"
  },
  {
    "id": 69,
    "img": "images/shop69.png",
    "name": "翁の郷",
    "category": "その他",
    "phone_number": "0120-8733-07",
    "address": "埼玉県蓮田市閏戸280",
    "area": "蓮田",
    "latitude": 35.9934484,
    "longitude": 139.6494406,
    "link": null,
    "comment": "埼玉・蓮田名物「島田造りめん」ご贈答、ご進物にどうぞ！！",
    "owner_name": "岩﨑広人",
    "owner_club": "バレー部",
    "owner_graduated_at": "昭和57年",
    "owner_group": "明魂会"
  },
  {
    "id": 70,
    "img": "images/shop70.png",
    "name": "アランチーノ",
    "category": "イタリアン",
    "phone_number": "808-931-6273",
    "address": "Hawaii 2550 Kalakaua Avenue Honolulu, HI 96815",
    "area": "Hawaii",
    "latitude": 21.2727193,
    "longitude": -157.8229232,
    "link": "http://www.arancino.com/jp/arancino-di-mare",
    "comment": "いつも満席ですが「明高です」の一言で予約OKになりそう？！",
    "owner_name": "稲村一郎",
    "owner_club": "無",
    "owner_graduated_at": "昭和45年",
    "owner_group": "獅子の会"
  }
]
